[
  {
    "id": "pub-001",
    "name": "🍺山家 本店",
    "lat": 35.658270105934456,
    "lng": 139.69941338726414,
    "address": "東京都渋谷区道玄坂1-5-9",
    "phone": "03-3461-3010",
    "note": "初デートの時、行こうとしていたお店が臨時休業で入れず、急遽行った焼き鳥屋。レトロな雰囲気で昼飲みに最適。",
    "url": "http://yamaga-sibuya.jp/"
  },
  {
    "id": "pub-002",
    "name": "🍺渋谷横丁",
    "lat": 35.66076437856772,
    "lng": 139.70180595512159,
    "address": "東京都渋谷区神宮前6-20-10",
    "phone": "",
    "note": "インバウンド向けでコスパは悪いが座れる。外席は寒いかも",
    "url": "https://shibuya-yokocho.com/"
  },
  {
    "id": "pub-003",
    "name": "🍺宮益坂下酒場",
    "lat": 35.659816133803474,
    "lng": 139.70259277595824,
    "address": "東京都渋谷区渋谷1丁目14 平野屋ビル 1F",
    "phone": "03-6418-5291",
    "note": "金の蔵が潰れて出来た店。行ったことはないけど旨そうな海鮮居酒屋。14時開店なので、ゆっくり歩いて向かってね",
    "url": ""
  },
  {
    "id": "pub-004",
    "name": "🍺土間土間 渋谷店",
    "lat": 35.66033305536927,
    "lng": 139.70323747881207,
    "address": "東京都渋谷区渋谷1丁目12-1 カレイド宮益坂 6F",
    "phone": "03-5778-9650",
    "note": "安定の土間。まるでどんぐりな味たまで無限に飲める",
    "url": ""
  },
  {
    "id": "pub-005",
    "name": "🏓卓球酒場ぽん蔵渋谷店",
    "lat": 35.66112213831108,
    "lng": 139.70101797704763,
    "address": "東京都渋谷区神南１丁目２２−７ 岩本ビル 8階",
    "phone": "0364278330",
    "note": "ごめんなさい🙏15時からです！でも、お酒しながら卓球できて楽しいので載せておきます。",
    "url": ""
  },
  {
    "id": "pub-006",
    "name": "🍺銀だこハイボール酒場 渋谷東口店",
    "lat": 35.658702222809765,
    "lng": 139.70326736066312,
    "address": "東京都渋谷区渋谷２丁目２２−１３ 渋谷東口マイアミビル",
    "phone": "0364185065",
    "note": "安定の！多分、披露宴でたこ焼きは出なかったと思うので、ここで食べてください。",
    "url": ""
  },
  {
    "id": "pub-007",
    "name": "🍺てんぐ大ホール 渋谷センター街2号店",
    "lat": 35.66018340437196,
    "lng": 139.69891658943902,
    "address": "東京都渋谷区宇田川町２６−９ センター街太田ビル B1F",
    "phone": "0364160422",
    "note": "手頃な価格で飲めた気がします。もし腹減ってたら定食でも食べてください。",
    "url": ""
  },
  {
    "id": "pub-008",
    "name": "🎤カラオケまねきねこ 渋谷道玄坂店",
    "lat": 35.6591246965364,
    "lng": 139.69869261169515,
    "address": "東京都渋谷区道玄坂２丁目６−１６ 井門道玄坂ビル 6F",
    "phone": "0364160525",
    "note": "カラオケ行くならまねきねこ！！！！",
    "url": ""
  },
  {
    "id": "pub-009",
    "name": "🎤カラオケまねきねこ 渋谷本店",
    "lat": 35.65967841496747,
    "lng": 139.6983238127936,
    "address": "東京都渋谷区道玄坂２丁目２９−５ 渋谷プライム 4F",
    "phone": "0364525704",
    "note": "カラオケ行くならまねきねこ！！！！",
    "url": ""
  },
  {
    "id": "pub-010",
    "name": "🎤カラオケルーム歌広場 渋谷センター街別館",
    "lat": 35.660283653890026,
    "lng": 139.69884141556085,
    "address": "東京都渋谷区宇田川町２６−９ 太田ビル 2階",
    "phone": "0334643521",
    "note": "実は歌広場派です。値段がどうとかじゃなくてなんとなく。",
    "url": ""
  },
  {
    "id": "pub-011",
    "name": "🎳EST",
    "lat": 35.66012288891399,
    "lng": 139.7027988714808,
    "address": "東京都渋谷区渋谷１丁目１４−１４",
    "phone": "",
    "note": "ボーリングとか卓球とか一通りできます。時間潰し or ゲームしたいならココ！",
    "url": ""
  }
]
